{
  "stops": [
    {"name": "鹿児島駅前", "lat": 31.6013310, "lng": 130.5626182, "lines": [1, 2]},
    {"name": "桜島桟橋通", "lat": 31.6001259, "lng": 130.5611981, "lines": [1, 2]},
    {"name": "水族館口", "lat": 31.5990914, "lng": 130.5598359, "lines": [1, 2]},
    {"name": "市役所前", "lat": 31.5967720, "lng": 130.5579111, "lines": [1, 2]},
    {"name": "朝日通", "lat": 31.5946670, "lng": 130.5572928, "lines": [1, 2]},
    {"name": "いづろ通", "lat": 31.5922908, "lng": 130.5576709, "lines": [1, 2]},
    {"name": "天文館通", "lat": 31.5907558, "lng": 130.5553253, "lines": [1, 2]},
    {"name": "高見馬場", "lat": 31.5884651, "lng": 130.5505019, "lines": [1, 2]},
    {"name": "甲東中学校前", "lat": 31.5855513, "lng": 130.5531928, "lines": [1]},
    {"name": "新屋敷", "lat": 31.5841401, "lng": 130.5537126, "lines": [1]},
    {"name": "武之橋", "lat": 31.5795070, "lng": 130.5539816, "lines": [1]},
    {"name": "二中通（キラメキテラス前）", "lat": 31.5770939, "lng": 130.5536991, "lines": [1]},
    {"name": "荒田八幡", "lat": 31.5736745, "lng": 130.5529918, "lines": [1]},
    {"name": "騎射場", "lat": 31.5696060, "lng": 130.5519895, "lines": [1]},
    {"name": "鴨池", "lat": 31.5652406, "lng": 130.5504326, "lines": [1]},
    {"name": "郡元", "lat": 31.5629850, "lng": 130.5494061, "lines": [1, 2]},
    {"name": "涙橋", "lat": 31.5593820, "lng": 130.5468635, "lines": [1]},
    {"name": "南鹿児島駅前", "lat": 31.5552836, "lng": 130.5441314, "lines": [1]},
    {"name": "二軒茶屋", "lat": 31.5499934, "lng": 130.5411468, "lines": [1]},
    {"name": "宇宿一丁目", "lat": 31.5470546, "lng": 130.5393824, "lines": [1]},
    {"name": "脇田", "lat": 31.5443203, "lng": 130.5377674, "lines": [1]},
    {"name": "笹貫", "lat": 31.5397984, "lng": 130.5341473, "lines": [1]},
    {"name": "上塩屋", "lat": 31.5347507, "lng": 130.5287706, "lines": [1]},
    {"name": "谷山", "lat": 31.5301090, "lng": 130.5233628, "lines": [1]},
    {"name": "加治屋町", "lat": 31.5874366, "lng": 130.5484299, "lines": [2]},
    {"name": "高見橋", "lat": 31.5857267, "lng": 130.5450233, "lines": [2]},
    {"name": "鹿児島中央駅前", "lat": 31.5837328, "lng": 130.5436789, "lines": [2]},
    {"name": "都通", "lat": 31.5807741, "lng": 130.5430602, "lines": [2]},
    {"name": "中洲通", "lat": 31.5784116, "lng": 130.5426256, "lines": [2]},
    {"name": "市立病院前", "lat": 31.5749953, "lng": 130.5415840, "lines": [2]},
    {"name": "神田（交通局前）", "lat": 31.5728849, "lng": 130.5406583, "lines": [2]},
    {"name": "唐湊", "lat": 31.5705163, "lng": 130.5411610, "lines": [2]},
    {"name": "工学部前", "lat": 31.5685873, "lng": 130.5418041, "lines": [2]},
    {"name": "純心学園前", "lat": 31.5667132, "lng": 130.5428253, "lines": [2]},
    {"name": "中郡", "lat": 31.5650350, "lng": 130.5451396, "lines": [2]}
  ]
}
